Date Time,01 Packet Counter,05 TimeStamp Day (1-366),06 On Board Computer Year,07 On Board Computer Day,08 On Board Computer Hour,09 On Board Computer Minute,10 On Board Computer Seconds,11 On Board Computer Month,12 GPS Real/Sim,14 Software Frequency Loop,15 GPS Day (LsBytes) (seconds of day),16 GPS Day (MsBit) (seconds of day),17 GPS Packets Received ,20 GPS Attitude Calc Mode,21 GPS Current Attitude Valid,22 GPS/OBC Time Difference Clock Drift,26 GPS Yaw,27 GPS Pitch,28 GPS Roll,29 GPS Latitude ,30 GPS Longitude,43 Num SVs used to determine attitude,44 Speed m/s ,45 Heading deg,46 Veritcal velocity m/s,47 Num SVs used to determine time
5/14/2023 5:00,90,134,2023,14,7,9,34,1,4,2,17983,set,93,3,valid,-7791,83.4,0.7,0,-32,-154.4,15,71,28.8,-13,18
5/14/2023 5:01,120,134,2023,14,7,10,34,1,4,2,18043,set,137,3,valid,-7791,89.2,0.8,0,-32,-154.4,16,50,16.4,-12,18
5/14/2023 5:02,152,134,2023,14,7,11,38,1,4,2,17979,set,201,3,valid,-7791,89.9,0.6,0,-32,-154.4,15,37,355.4,-4,18
5/14/2023 5:03,181,134,2023,14,7,12,36,1,4,2,18037,set,235,3,valid,-7791,89.7,0.5,0,-32,-154.4,15,34,347.7,-1,18
5/14/2023 5:04,211,134,2023,14,7,13,36,1,4,2,18225,set,23,3,valid,-7791,89.7,0.4,0,-32,-154.4,14,34,352.3,-6,18
5/14/2023 5:05,242,134,2023,14,7,14,38,1,4,2,18287,set,78,3,valid,-7791,90.6,0.5,0,-32,-154.4,15,42,4.8,-11,18
5/14/2023 5:06,17,134,2023,14,7,15,40,1,4,2,18221,set,132,3,valid,-7791,89.9,0.3,0,-32,-154.4,16,53,18.9,-20,18
5/14/2023 5:07,47,134,2023,14,7,16,40,1,4,2,18281,set,176,3,valid,-7791,89.9,0.4,0,-32,-154.4,16,66,30.1,-18,18
5/14/2023 5:09,107,134,2023,14,7,18,40,1,4,2,18529,set,8,3,valid,-7791,89.9,0.6,0,-31.9,-154.4,16,71,37,3,17
5/14/2023 5:10,137,134,2023,14,7,19,40,1,4,2,18461,set,52,3,valid,-7791,89.8,0.7,0,-31.9,-154.4,17,72,39,0,18
5/14/2023 5:11,168,134,2023,14,7,20,42,1,4,2,18523,set,106,3,valid,-7791,89.9,0.7,0,-31.9,-154.4,17,73,37.2,-14,18
5/14/2023 5:12,199,134,2023,14,7,21,44,1,4,2,18713,set,160,3,valid,-7791,89.8,0.6,0,-31.9,-154.4,17,83,36.9,-14,18
5/14/2023 5:13,229,134,2023,14,7,22,44,1,4,2,18773,set,204,3,valid,-7791,89.9,0.6,0,-31.9,-154.4,17,87,41,-8,18
5/14/2023 5:14,4,134,2023,14,7,23,46,1,4,2,18707,set,2,3,valid,-7791,89.8,0.7,0,-31.9,-154.4,17,85,43.4,-6,18
5/14/2023 5:15,39,134,2023,14,7,24,56,1,4,2,18777,set,96,3,valid,-7791,89.8,0.6,0,-31.9,-154.4,16,75,47.9,-14,18
5/14/2023 5:16,69,134,2023,14,7,25,56,1,4,2,18965,set,140,3,valid,-7791,89.8,0.6,0,-31.9,-154.4,17,70,52.8,-7,18
5/14/2023 5:17,95,134,2023,14,7,26,48,1,4,2,19017,set,144,3,valid,-7791,89.8,0.7,0,-31.9,-154.4,17,70,52.1,-1,18
5/14/2023 5:18,121,134,2023,14,7,27,40,1,4,2,19069,set,148,3,valid,-7791,89.8,0.6,0,-31.9,-154.4,17,69,51.9,-5,18
5/14/2023 5:19,150,134,2023,14,7,28,38,1,4,2,18999,set,182,3,valid,-7791,89.8,0.7,0,-31.9,-154.4,17,68,51,-12,18
5/14/2023 5:20,177,134,2023,14,7,29,32,1,4,2,19054,clr,197,3,valid,-7790,89.8,0.7,0,-31.9,-154.4,17,74,39.9,-13,18
5/14/2023 5:20,202,134,2023,14,7,30,22,1,4,2,19232,clr,191,3,valid,-7790,89.8,0.6,0,-31.9,-154.4,17,76,35.5,-12,5
5/14/2023 5:22,232,134,2023,14,7,31,22,1,4,2,19292,clr,235,3,valid,-7790,89.8,0.7,0,-31.9,-154.4,17,71,34.3,-14,5
5/14/2023 5:22,6,134,2023,14,7,32,22,1,4,2,19224,clr,23,3,valid,-7790,89.9,0.5,0,-31.9,-154.4,14,69,33.8,-7,5
5/14/2023 5:23,38,134,2023,14,7,33,26,1,4,2,19288,clr,87,3,valid,-7790,89.9,0.6,0,-31.9,-154.4,16,67,32.5,8,5
5/14/2023 5:24,68,134,2023,14,7,34,26,1,4,2,19476,clr,131,3,valid,-7790,89.9,0.6,0,-31.9,-154.4,16,69,31.7,-5,5
5/14/2023 5:26,98,134,2023,14,7,35,26,1,4,2,19536,clr,175,3,valid,-7790,89.7,0.4,0,-31.9,-154.4,15,68,38.2,-13,5
5/14/2023 5:27,129,134,2023,14,7,36,28,1,4,2,19470,clr,229,3,valid,-7790,89.8,0.7,0,-31.9,-154.4,17,59,39.6,-9,5
5/14/2023 5:28,159,134,2023,14,7,37,28,1,4,2,19530,clr,17,3,valid,-7790,89.8,0.6,0,-31.9,-154.4,17,55,38.3,1,5
5/14/2023 5:29,190,134,2023,14,7,38,30,1,4,2,19720,clr,71,3,valid,-7790,89.8,0.6,0,-31.9,-154.4,17,55,38,1,5
5/14/2023 5:30,221,134,2023,14,7,39,32,1,4,2,19782,clr,125,3,valid,-7790,89.8,0.7,0,-31.9,-154.4,17,49,36.7,-13,5
5/14/2023 5:31,251,134,2023,14,7,40,32,1,4,2,19714,clr,169,3,valid,-7790,89.7,0.5,0,-31.9,-154.4,17,43,43.2,-15,5
5/14/2023 5:32,26,134,2023,14,7,41,34,1,4,2,19776,clr,223,3,valid,-7790,88.6,0.3,0,-31.9,-154.4,17,54,55.6,-12,5
5/14/2023 5:33,56,134,2023,14,7,42,34,1,4,2,19836,clr,12,3,valid,-7790,89.9,0.2,0,-31.9,-154.4,16,66,66.9,-7,5
5/14/2023 5:34,87,134,2023,14,7,43,36,1,4,2,20026,clr,66,3,valid,-7790,89.8,0.3,0,-31.9,-154.3,13,72,73.9,-2,5
5/14/2023 5:35,123,134,2023,14,7,44,48,1,4,2,19970,clr,170,3,valid,-7790,89.9,0.3,0,-31.9,-154.3,12,72,80.4,-12,5
5/14/2023 5:36,153,134,2023,14,7,45,48,1,4,2,20030,clr,214,3,valid,-7790,89.6,0.5,0,-31.9,-154.3,17,62,87.9,-16,5
5/14/2023 5:37,185,134,2023,14,7,46,52,1,4,2,20094,clr,22,3,valid,-7790,89.9,0.5,0,-31.9,-154.3,17,52,79.9,-12,5
5/14/2023 5:38,215,134,2023,14,7,47,52,1,4,2,20282,clr,66,3,valid,-7790,87.8,0.6,0,-31.9,-154.3,17,42,61.9,-9,5
5/14/2023 5:39,245,134,2023,14,7,48,52,1,4,2,20342,clr,110,3,valid,-7790,89,0.5,0,-31.9,-154.3,17,35,42.6,-6,5
5/14/2023 5:40,19,134,2023,14,7,49,52,1,4,2,20274,clr,154,3,valid,-7790,89.7,0.6,0,-31.9,-154.3,17,32,15.8,-7,5
5/14/2023 5:41,50,134,2023,14,7,50,54,1,4,2,20336,clr,208,3,valid,-7790,89.9,0.4,0,-31.9,-154.3,15,35,351.8,-9,5
5/14/2023 5:42,79,134,2023,14,7,51,52,1,4,2,20522,clr,242,3,valid,-7790,89.6,0.4,0,-31.9,-154.3,13,38,349.3,-5,5
5/14/2023 5:43,104,134,2023,14,7,52,42,1,4,2,20572,clr,236,3,valid,-7790,89.9,0.3,0,-31.9,-154.3,12,39,355.5,-6,5
5/14/2023 5:44,134,134,2023,14,7,53,42,1,4,2,20504,clr,24,3,valid,-7790,91.3,0.5,0,-31.9,-154.3,14,44,2.5,-9,5
5/14/2023 5:46,185,134,2023,14,7,55,24,1,4,2,20606,clr,22,3,valid,-7790,89.1,0.4,0,-31.9,-154.3,17,58,17.9,-10,5
5/14/2023 5:46,216,134,2023,14,7,56,26,1,4,2,20796,clr,76,3,valid,-7790,89.6,0.3,0,-31.9,-154.3,17,55,32.7,-8,5
5/14/2023 5:48,245,134,2023,14,7,57,24,1,4,2,20854,clr,111,3,valid,-7790,90,0.4,0,-31.9,-154.3,17,54,44.7,-3,5
5/14/2023 5:49,20,134,2023,14,7,58,26,1,4,2,20788,clr,165,3,valid,-7790,89.9,0.5,0,-31.9,-154.3,17,52,47.2,0,5
5/14/2023 5:50,52,134,2023,14,7,59,30,1,4,2,20852,clr,229,3,valid,-7790,89.8,0.5,0,-31.9,-154.3,16,52,50.9,-5,4
5/14/2023 5:50,83,134,2023,14,8,0,32,1,4,2,21042,clr,27,3,valid,-7790,93.1,0.5,0,-31.9,-154.3,8,56,60.8,-10,4
5/14/2023 5:52,113,134,2023,14,8,1,32,1,4,2,21102,clr,71,3,valid,-7790,87,0.6,0,-31.9,-154.3,10,51,73.1,-7,4
5/14/2023 5:53,144,134,2023,14,8,2,34,1,4,2,21036,clr,125,3,valid,-7790,84.3,0.6,0,-31.9,-154.3,10,46,79.7,-2,4
5/14/2023 5:54,176,134,2023,14,8,3,38,1,4,2,21100,clr,189,3,valid,-7790,87.1,0.7,0,-31.9,-154.3,16,46,82.8,-4,4
5/14/2023 5:55,211,134,2023,14,8,4,48,1,4,2,21298,clr,27,3,valid,-7790,93.4,0.5,0,-31.8,-154.3,15,35,94.2,-10,4
5/14/2023 5:56,241,134,2023,14,8,5,48,1,4,2,21358,clr,71,3,valid,-7790,87.9,0.7,0,-31.9,-154.3,15,20,126.5,-9,4
5/14/2023 5:57,9,134,2023,14,8,6,36,1,4,2,21278,clr,55,3,valid,-7790,89.5,0.6,0,-31.9,-154.3,15,17,159.2,-4,4
5/14/2023 5:58,40,134,2023,14,8,7,38,1,4,2,21340,clr,109,3,valid,-7790,89.3,0.6,0,-31.9,-154.3,16,17,182.5,-6,5
5/14/2023 5:59,70,134,2023,14,8,8,38,1,4,2,21528,clr,153,3,valid,-7790,88,0.6,0,-31.9,-154.3,16,19,187.3,-8,5
5/14/2023 6:00,102,134,2023,14,8,9,42,1,4,2,21592,clr,217,3,valid,-7790,90,0.5,0,-31.9,-154.3,10,21,166.2,-8,5
5/14/2023 6:01,138,134,2023,14,8,10,54,1,4,2,21536,clr,65,3,valid,-7790,89.2,0.7,0,-31.9,-154.3,10,28,145.8,-8,5
5/14/2023 6:02,168,134,2023,14,8,11,54,1,4,2,21596,clr,110,3,valid,-7790,98.1,0.3,0,-31.9,-154.3,10,32,128.5,-9,5
5/14/2023 6:03,195,134,2023,14,8,12,48,1,4,2,21778,clr,124,3,valid,-7790,92.4,0.4,0,-31.9,-154.3,11,37,114.4,-8,5
5/14/2023 6:04,227,134,2023,14,8,13,52,1,4,2,21842,clr,188,3,valid,-7790,93.8,0.6,0,-31.9,-154.3,15,42,109.4,-5,16
5/14/2023 6:05,1,134,2023,14,8,14,52,1,4,2,21774,clr,232,3,valid,-7790,90.6,0.7,0,-31.9,-154.3,15,44,109.1,-1,16
5/14/2023 6:06,31,134,2023,14,8,15,52,1,4,2,21834,clr,20,3,valid,-7790,89.5,0.7,0,-31.9,-154.3,15,47,107.7,-2,16
5/14/2023 6:07,62,134,2023,14,8,16,54,1,4,2,22024,clr,74,3,valid,-7790,89.3,0.6,0,-31.9,-154.3,15,49,104.2,-5,16
5/14/2023 6:08,92,134,2023,14,8,17,54,1,4,2,22084,clr,118,3,valid,-7790,87.9,0.7,0,-31.9,-154.3,15,48,114.3,-9,16
5/14/2023 6:09,123,134,2023,14,8,18,56,1,4,2,22018,clr,172,3,valid,-7790,91,0.8,0,-31.9,-154.3,11,54,136.5,-11,16
5/14/2023 6:10,153,134,2023,14,8,19,56,1,4,2,22078,clr,216,3,valid,-7790,89.1,0.6,0,-31.9,-154.3,10,63,147.2,-6,16
5/14/2023 6:11,184,134,2023,14,8,20,58,1,4,2,22140,clr,14,3,valid,-7790,89,0.4,0,-31.9,-154.3,15,65,151.9,-1,16
5/14/2023 6:12,222,134,2023,14,8,22,14,1,4,2,22344,clr,138,3,valid,-7790,90,0.4,0,-31.9,-154.3,15,70,154.4,-5,16
5/14/2023 6:14,253,134,2023,14,8,23,16,1,4,2,22278,clr,192,3,valid,-7790,89.7,0.4,0,-31.9,-154.3,15,72,161.4,-8,16
5/14/2023 6:15,28,134,2023,14,8,24,18,1,4,2,22340,clr,246,3,valid,-7790,89.8,0.4,0,-31.9,-154.3,15,73,166.7,-7,16
5/14/2023 6:15,57,134,2023,14,8,25,16,1,4,2,22398,clr,25,3,valid,-7790,91.1,0.5,0,-31.9,-154.3,15,75,173.1,-4,16
5/14/2023 6:17,88,134,2023,14,8,26,18,1,4,2,22588,clr,79,3,valid,-7790,87.6,0.4,0,-31.9,-154.3,15,74,173.7,4,16
5/14/2023 6:18,119,134,2023,14,8,27,20,1,4,2,22650,clr,133,3,valid,-7790,89.1,0.3,0,-31.9,-154.3,15,73,171.2,-4,16
5/14/2023 6:18,144,134,2023,14,8,28,10,1,4,2,22572,clr,127,3,valid,-7790,89.2,0.5,0,-31.9,-154.3,11,74,174.4,-13,16
5/14/2023 6:19,172,134,2023,14,8,29,6,1,4,2,22628,clr,151,3,valid,-7790,89.9,0.6,0,-31.9,-154.3,10,78,182.1,-13,16
5/14/2023 6:20,198,134,2023,14,8,29,58,1,4,2,22808,clr,155,3,valid,-7790,89.5,0.5,0,-31.9,-154.3,11,82,186.1,-5,16
5/14/2023 6:21,225,134,2023,14,8,30,52,1,4,2,22862,clr,169,3,valid,-7790,89.7,0.6,0,-31.9,-154.3,10,84,187,-1,17
5/14/2023 6:22,252,134,2023,14,8,31,46,1,4,2,22788,clr,183,3,valid,-7790,89.8,0.5,0,-31.9,-154.3,16,85,188.4,-4,17
5/14/2023 6:23,21,134,2023,14,8,32,36,1,4,2,22838,clr,177,3,valid,-7790,89.7,0.5,0,-31.9,-154.3,16,86,190.9,-9,17
5/14/2023 6:24,51,134,2023,14,8,33,36,1,4,2,22898,clr,221,3,valid,-7790,88.8,0.3,0,-31.9,-154.3,16,86,196.4,-10,17
5/14/2023 6:25,75,134,2023,14,8,34,24,1,4,2,23074,clr,205,3,valid,-7790,90.5,0.5,0,-31.9,-154.3,16,85,198.4,1,17
5/14/2023 6:25,100,134,2023,14,8,35,14,1,4,2,23124,clr,199,3,valid,-7790,90.5,0.5,0,-31.9,-154.3,16,89,199,4,17
5/14/2023 6:26,124,134,2023,14,8,36,2,1,4,2,23044,clr,183,3,valid,-7790,89.9,0.6,0,-31.9,-154.3,16,93,200.1,-4,17
5/14/2023 6:27,149,134,2023,14,8,36,52,1,4,2,23094,clr,177,3,valid,-7790,89.5,0.4,0,-31.9,-154.3,16,92,200.4,-11,17
5/14/2023 6:28,174,134,2023,14,8,37,42,1,4,2,23144,clr,171,3,valid,-7790,88.2,0.5,0,-31.9,-154.3,12,87,200.5,-3,16
5/14/2023 6:29,200,134,2023,14,8,38,34,1,4,2,23324,clr,175,3,valid,-7790,89.7,0.4,0,-31.9,-154.3,12,85,201.1,8,16
5/14/2023 6:30,226,134,2023,14,8,39,26,1,4,2,23376,clr,179,3,valid,-7790,89.4,0.4,0,-31.9,-154.3,12,84,200.8,4,16
5/14/2023 6:31,0,134,2023,14,8,40,26,1,4,2,23309,set,224,3,valid,-7789,88,0.5,0,-32,-154.3,14,82,200.7,-9,5
5/14/2023 6:32,28,134,2023,14,8,41,22,1,4,2,23365,set,248,3,valid,-7789,86.7,0.5,0,-32,-154.3,14,78,204.9,-9,5
5/14/2023 6:33,58,134,2023,14,8,42,22,1,4,2,23553,set,36,3,valid,-7789,90.6,0.5,0,-32,-154.3,14,75,206.8,4,5
5/14/2023 6:33,85,134,2023,14,8,43,16,1,4,2,23607,set,50,3,valid,-7789,89.7,0.5,0,-32,-154.3,14,78,204.3,5,5
5/14/2023 6:34,111,134,2023,14,8,44,8,1,4,2,23659,set,54,3,valid,-7789,88,0.6,0,-32,-154.3,14,77,204.1,-3,5
5/14/2023 6:35,137,134,2023,14,8,45,0,1,4,2,23583,set,58,3,valid,-7789,91.9,0.5,0,-32,-154.3,14,72,208.4,-4,5
5/14/2023 6:36,165,134,2023,14,8,45,56,1,4,2,23639,set,82,3,valid,-7789,91.6,0.6,0,-32,-154.3,14,67,213.3,-2,5
5/14/2023 6:37,189,134,2023,14,8,46,44,1,4,2,23815,set,66,3,valid,-7789,91.3,0.6,0,-32,-154.3,14,66,215.3,-3,5
5/14/2023 6:38,213,134,2023,14,8,47,32,1,4,2,23863,set,50,3,valid,-7789,89.7,0.7,0,-32,-154.3,12,65,216,-4,5
5/14/2023 6:39,238,134,2023,14,8,48,22,1,4,2,23913,set,44,3,valid,-7789,89.7,0.7,0,-32,-154.3,12,65,217.2,-4,5
5/14/2023 6:40,10,134,2023,14,8,49,18,1,4,2,23841,set,68,3,valid,-7789,89.9,0.8,0,-32,-154.3,14,63,219.9,-1,5
5/14/2023 6:41,45,134,2023,14,8,50,28,1,4,2,23911,set,162,3,valid,-7789,89.8,0.7,0,-32,-154.3,14,64,220.8,5,5
5/14/2023 6:42,75,134,2023,14,8,51,28,1,4,2,24099,set,206,3,valid,-7789,89.8,0.7,0,-32,-154.3,14,65,221.2,-3,5
5/14/2023 6:43,124,134,2023,14,8,53,6,1,4,2,24069,set,184,3,valid,-7789,89.7,0.4,0,-32,-154.3,14,59,225.2,-8,5
5/14/2023 6:44,150,134,2023,14,8,53,58,1,4,2,24121,set,189,3,valid,-7789,89.8,0.6,0,-32,-154.3,14,57,226.4,-2,5
5/14/2023 6:45,176,134,2023,14,8,54,50,1,4,2,24173,set,193,3,valid,-7789,89.8,0.5,0,-32,-154.3,14,54,226.8,0,5
5/14/2023 6:46,201,134,2023,14,8,55,40,1,4,2,24351,set,187,3,valid,-7789,89.6,0.6,0,-32,-154.3,15,50,228.6,0,5
5/14/2023 6:46,226,134,2023,14,8,56,30,1,4,2,24401,set,181,3,valid,-7789,89.7,0.5,0,-32,-154.3,15,47,230.7,0,5
5/14/2023 6:48,252,134,2023,14,8,57,22,1,4,2,24325,set,185,3,valid,-7789,89.6,0.6,0,-32,-154.3,13,45,232,-1,5
5/14/2023 6:49,26,134,2023,14,8,58,22,1,4,2,24385,set,229,3,valid,-7789,89.8,0.5,0,-32,-154.3,15,43,232.3,-4,5
5/14/2023 6:50,57,134,2023,14,8,59,24,1,4,2,24447,set,27,3,valid,-7789,89.7,0.7,0,-32,-154.3,15,41,233.2,-2,5
5/14/2023 6:52,114,134,2023,14,9,1,18,1,4,2,24689,set,85,3,valid,-7789,89.7,0.5,0,-32,-154.3,15,39,238.3,-1,5
5/14/2023 6:52,142,134,2023,14,9,2,14,1,4,2,24617,set,109,3,valid,-7789,134,0.7,0,-32,-154.3,15,37,238.6,-2,5
5/14/2023 6:53,172,134,2023,14,9,3,14,1,4,2,24677,set,153,3,valid,-7789,189,0.3,0,-32,-154.3,15,36,238.9,0,5
5/14/2023 6:55,204,134,2023,14,9,4,18,1,4,2,24869,set,217,3,valid,-7789,256.6,0.7,0,-32,-154.3,15,36,240.3,0,5
5/14/2023 6:56,234,134,2023,14,9,5,18,1,4,2,24929,set,5,3,valid,-7789,308.1,0.6,0,-32,-154.3,14,33,239.9,-2,5
5/14/2023 6:57,8,134,2023,14,9,6,18,1,4,2,24861,set,49,3,valid,-7789,2.4,0.6,0,-32,-154.3,15,28,236.8,-3,5
5/14/2023 6:57,39,134,2023,14,9,7,20,1,4,2,24923,set,103,3,valid,-7789,52.2,0.6,0,-32,-154.3,16,24,232,-5,5
5/14/2023 6:59,69,134,2023,14,9,8,20,1,4,2,25111,set,148,3,valid,-7789,126.1,0.6,0,-32,-154.3,13,20,233.6,-2,16
5/14/2023 6:59,101,134,2023,14,9,9,24,1,4,2,25175,set,212,3,valid,-7789,186.5,0.8,0,-32,-154.3,15,22,238.3,0,16
5/14/2023 7:01,131,134,2023,14,9,10,24,1,4,2,25107,set,0,3,valid,-7789,255.3,0.6,0,-32,-154.4,13,23,242.3,-5,16
5/14/2023 7:02,162,134,2023,14,9,11,26,1,4,2,25169,set,54,3,valid,-7789,314.3,0.6,0,-32,-154.4,13,19,251.3,-7,16
5/14/2023 7:02,192,134,2023,14,9,12,26,1,4,2,25357,set,98,3,valid,-7789,4.6,0.5,0,-32,-154.4,12,18,267.9,-4,16
5/14/2023 7:04,222,134,2023,14,9,13,26,1,4,2,25417,set,142,3,valid,-7789,64.1,0.6,0,-32,-154.4,12,19,280.4,-1,16
5/14/2023 7:05,253,134,2023,14,9,14,28,1,4,2,25351,set,196,3,valid,-7789,95.7,0.9,0,-32,-154.4,14,19,300,-3,16
5/14/2023 7:05,28,134,2023,14,9,15,30,1,4,2,25413,set,250,3,valid,-7789,183.6,0.7,0,-32,-154.4,12,19,317.6,-3,16
5/14/2023 7:07,58,134,2023,14,9,16,30,1,4,2,25601,set,38,3,valid,-7789,238.3,0.5,0,-32,-154.4,15,19,325.4,1,16
5/14/2023 7:07,89,134,2023,14,9,17,32,1,4,2,25663,set,92,3,valid,-7789,314.1,0.5,0,-32,-154.4,15,20,324,-2,16
5/14/2023 7:09,120,134,2023,14,9,18,34,1,4,2,25725,set,146,3,valid,-7789,14.5,0.5,0,-32,-154.4,14,18,339.1,-5,16
5/14/2023 7:10,149,134,2023,14,9,19,32,1,4,2,25655,set,180,3,valid,-7789,65.6,0.6,0,-32,-154.4,14,17,358.6,-4,16
5/14/2023 7:11,180,134,2023,14,9,20,34,1,4,2,25717,set,234,3,valid,-7789,119.2,0.8,0,-32,-154.4,15,16,17.2,-3,16
5/14/2023 7:12,210,134,2023,14,9,21,34,1,4,2,25905,set,22,3,valid,-7789,159.2,0.7,0,-32,-154.4,14,20,37.1,-5,16
5/14/2023 7:13,240,134,2023,14,9,22,34,1,4,2,25965,set,67,3,valid,-7789,244.1,0.5,0,-32,-154.4,13,25,49.9,-4,16
5/14/2023 7:14,15,134,2023,14,9,23,36,1,4,2,25899,set,121,3,valid,-7789,300.2,0.3,0,-32,-154.4,14,30,59.5,-3,16
5/14/2023 7:15,49,134,2023,14,9,24,44,1,4,2,25967,set,205,3,valid,-7789,13.7,0.7,0,-32,-154.4,14,30,71.5,-2,16
5/14/2023 7:16,80,134,2023,14,9,25,46,1,4,2,26157,set,3,3,valid,-7789,74.3,0.7,0,-32,-154.4,14,29,79.3,-2,16
5/14/2023 7:17,111,134,2023,14,9,26,48,1,4,2,26219,set,57,3,valid,-7789,133.9,0.5,0,-32,-154.3,14,30,82.1,-1,16
5/14/2023 7:18,142,134,2023,14,9,27,50,1,4,2,26153,set,111,3,valid,-7789,194.4,0.7,0,-32,-154.3,14,32,85,0,16
5/14/2023 7:19,172,134,2023,14,9,28,50,1,4,2,26213,set,155,3,valid,-7789,249.2,0.6,0,-32,-154.3,15,35,88.7,-2,16
5/14/2023 7:20,200,134,2023,14,9,29,46,1,4,2,26397,set,179,3,valid,-7789,307.1,0.5,0,-32,-154.3,15,37,90.9,-2,16
5/14/2023 7:21,236,134,2023,14,9,30,58,1,4,2,26469,set,27,3,valid,-7789,18.4,0.5,0,-32,-154.3,14,35,97.2,0,16
5/14/2023 7:22,11,134,2023,14,9,32,0,1,4,2,26403,set,81,3,valid,-7789,77.4,0.5,0,-32,-154.3,13,35,104.2,-5,16
5/14/2023 7:24,82,134,2023,14,9,34,22,1,4,2,26673,set,23,3,valid,-7789,213.6,0.7,0,-32,-154.3,14,39,107.5,-1,15
5/14/2023 7:26,114,134,2023,14,9,35,26,1,4,2,26737,set,87,3,valid,-7789,276.3,0.5,0,-32,-154.3,14,37,107.2,-1,15
5/14/2023 7:27,151,134,2023,14,9,36,40,1,4,2,26683,set,202,3,valid,-7789,352.5,0.3,0,-32,-154.3,14,38,104.2,-4,15
5/14/2023 7:28,181,134,2023,14,9,37,40,1,4,2,26743,set,246,3,valid,-7789,50.5,0.7,0,-32,-154.3,13,38,102.5,-2,15
5/14/2023 7:29,212,134,2023,14,9,38,42,1,4,2,26933,set,44,3,valid,-7789,105.9,0.8,0,-32,-154.3,13,36,100.3,-2,15
5/14/2023 7:30,240,134,2023,14,9,39,38,1,4,2,26989,set,68,3,valid,-7789,159.1,0.6,0,-32,-154.3,13,36,95.3,-3,14
5/14/2023 7:31,13,134,2023,14,9,40,36,1,4,2,26919,set,102,3,valid,-7789,204.2,0.8,0,-32,-154.3,13,36,89,-3,14
5/14/2023 7:32,39,134,2023,14,9,41,28,1,4,2,26971,set,106,3,valid,-7789,263.4,0.5,0,-32,-154.3,12,36,84.9,-1,14
5/14/2023 7:32,64,134,2023,14,9,42,18,1,4,2,27149,set,100,3,valid,-7789,277.8,0.5,0,-32,-154.3,13,36,86.6,-2,14
5/14/2023 7:33,89,134,2023,14,9,43,8,1,4,2,27199,set,94,3,valid,-7789,195.3,0.9,0,-32,-154.3,9,39,90.9,-4,14
5/14/2023 7:34,115,134,2023,14,9,44,0,1,4,2,27251,set,98,3,valid,-7789,135.3,0.5,0,-32,-154.3,12,38,92.7,-1,14
5/14/2023 7:35,144,134,2023,14,9,44,58,1,4,2,27181,set,132,3,valid,-7789,74.9,0.7,0,-32,-154.3,13,35,93.4,0,14
5/14/2023 7:36,175,134,2023,14,9,46,0,1,4,2,27243,set,186,3,valid,-7789,39.9,0.3,0,-32,-154.3,13,37,94.4,-2,14
5/14/2023 7:37,206,134,2023,14,9,47,2,1,4,2,27433,set,240,3,valid,-7789,49.9,0.4,0,-32,-154.3,13,46,102.2,-6,14
5/14/2023 7:38,236,134,2023,14,9,48,2,1,4,2,27493,set,28,3,valid,-7789,43.9,0.4,0,-32,-154.3,13,53,110.8,-5,14
5/14/2023 7:39,10,134,2023,14,9,49,2,1,4,2,27425,set,72,3,valid,-7789,45.4,0.2,0,-32,-154.3,13,54,116,-3,14
5/14/2023 7:40,40,134,2023,14,9,50,2,1,4,2,27485,set,116,3,valid,-7789,44.4,0.3,0,-32,-154.3,13,54,115.6,0,14
5/14/2023 7:41,70,134,2023,14,9,51,2,1,4,2,27674,clr,161,3,valid,-7788,45,0.3,0,-32,-154.3,14,55,116,1,4
5/14/2023 7:42,101,134,2023,14,9,52,4,1,4,2,27736,clr,215,3,valid,-7788,42,0.4,0,-32,-154.3,14,57,120,-5,15
5/14/2023 7:43,131,134,2023,14,9,53,4,1,4,2,27668,clr,3,3,valid,-7788,43.7,0.3,0,-32,-154.3,13,64,123.2,-10,14
5/14/2023 7:44,156,134,2023,14,9,53,54,1,4,2,27718,clr,253,3,valid,-7788,36.6,0.4,0,-32,-154.3,13,70,123.2,-5,14
5/14/2023 7:45,182,134,2023,14,9,54,46,1,4,2,27770,clr,1,3,valid,-7788,32,0.4,0,-32,-154.3,13,73,121.1,2,14
5/14/2023 7:46,207,134,2023,14,9,55,36,1,4,2,27948,clr,251,3,valid,-7788,20.6,0.8,0,-32,-154.3,13,72,120.2,2,14
5/14/2023 7:47,233,134,2023,14,9,56,28,1,4,2,28000,clr,255,3,valid,-7788,21.1,0.8,0,-32,-154.3,13,73,120.7,-2,14
5/14/2023 7:48,4,134,2023,14,9,57,22,1,4,2,27926,clr,13,3,valid,-7788,14.8,0.7,0,-32,-154.3,13,76,121.1,-5,14
5/14/2023 7:49,36,134,2023,14,9,58,26,1,4,2,27990,clr,77,3,valid,-7788,7.9,0.6,0,-32,-154.3,13,76,122.4,-3,14
5/14/2023 7:49,67,134,2023,14,9,59,28,1,4,2,28180,clr,131,3,valid,-7788,4.6,0.6,0,-32,-154.3,13,76,123.6,-3,14
5/14/2023 7:51,97,134,2023,14,10,0,28,1,4,2,28240,clr,175,3,valid,-7788,355.2,0.4,0,-32,-154.3,13,76,123,-3,14
5/14/2023 7:51,128,134,2023,14,10,1,30,1,4,2,28174,clr,229,3,valid,-7788,351.5,0.5,0,-32,-154.3,14,76,121.8,-1,15
5/14/2023 7:53,158,134,2023,14,10,2,30,1,4,2,28234,clr,17,3,valid,-7788,343.4,0.6,0,-32,-154.2,14,76,121.4,-3,15
5/14/2023 7:54,188,134,2023,14,10,3,30,1,4,2,28422,clr,61,3,valid,-7788,337.5,0.4,0,-32,-154.2,14,74,122.3,-5,15
5/14/2023 7:55,219,134,2023,14,10,4,32,1,4,2,28484,clr,115,3,valid,-7788,336.4,0.5,0,-32,-154.2,14,73,124.7,-2,15
5/14/2023 7:56,248,134,2023,14,10,5,30,1,4,2,28542,clr,150,3,valid,-7788,344,0.7,0,-32,-154.2,14,72,126.7,-1,15
5/14/2023 7:57,23,134,2023,14,10,6,32,1,4,2,28476,clr,204,3,valid,-7788,350.6,0.6,0,-32,-154.2,13,72,129,-5,15
5/14/2023 7:58,54,134,2023,14,10,7,34,1,4,2,28538,clr,2,3,valid,-7788,337.9,0.6,0,-32,-154.2,13,73,132.6,-6,14
5/14/2023 7:58,79,134,2023,14,10,8,24,1,4,2,28716,clr,252,3,valid,-7788,347.6,0.6,0,-32,-154.2,13,73,134.6,-1,14
5/14/2023 8:00,110,134,2023,14,10,9,26,1,4,2,28778,clr,50,3,valid,-7788,347.1,0.5,0,-32.1,-154.2,13,72,136.3,0,14
5/14/2023 8:00,140,134,2023,14,10,10,26,1,4,2,28710,clr,94,3,valid,-7788,350.3,0.6,0,-32.1,-154.2,12,70,137.8,-2,13
5/14/2023 8:02,170,134,2023,14,10,11,26,1,4,2,28770,clr,138,3,valid,-7788,355.7,0.6,0,-32.1,-154.2,12,70,140.3,-4,13
5/14/2023 8:02,201,134,2023,14,10,12,28,1,4,2,28960,clr,192,3,valid,-7788,3.6,0.5,0,-32.1,-154.2,11,68,143.9,-1,13
5/14/2023 8:04,232,134,2023,14,10,13,30,1,4,2,29022,clr,246,3,valid,-7788,19.7,0.6,0,-32.1,-154.2,12,68,145.6,0,13
5/14/2023 8:05,7,134,2023,14,10,14,32,1,4,2,28956,clr,44,3,valid,-7788,44.4,0.7,0,-32.1,-154.2,12,68,145.6,-2,13
5/14/2023 8:06,38,134,2023,14,10,15,34,1,4,2,29018,clr,98,3,valid,-7788,34.1,0.6,0,-32.1,-154.2,12,68,145.4,-4,13
5/14/2023 8:07,76,134,2023,14,10,16,50,1,4,2,29222,clr,222,3,valid,-7788,18.7,0.6,0,-32.1,-154.2,12,66,147.6,-3,13
5/14/2023 8:08,107,134,2023,14,10,17,52,1,4,2,29284,clr,20,3,valid,-7788,8.9,0.7,0,-32.1,-154.2,12,66,149.9,-2,13
5/14/2023 8:09,136,134,2023,14,10,18,50,1,4,2,29214,clr,55,3,valid,-7788,8.3,0.5,0,-32.1,-154.2,12,65,151,-4,13
5/14/2023 8:10,168,134,2023,14,10,19,54,1,4,2,29278,clr,119,3,valid,-7788,355.5,0.5,0,-32.1,-154.2,12,65,150.8,-3,13
5/14/2023 8:11,194,134,2023,14,10,20,46,1,4,2,29458,clr,123,3,valid,-7788,346.9,0.3,0,-32.1,-154.2,12,63,150.4,-2,13
5/14/2023 8:12,225,134,2023,14,10,21,48,1,4,2,29520,clr,177,3,valid,-7788,352.4,0.4,0,-32.1,-154.2,12,61,149.1,0,13
5/14/2023 8:13,0,134,2023,14,10,22,50,1,4,2,29454,clr,231,3,valid,-7788,354.4,0.4,0,-32.1,-154.2,12,59,147.4,0,13
5/14/2023 8:14,31,134,2023,14,10,23,52,1,4,2,29516,clr,29,3,valid,-7788,352.5,0.4,0,-32.1,-154.2,12,57,146.9,-1,13
5/14/2023 8:15,61,134,2023,14,10,24,52,1,4,2,29704,clr,73,3,valid,-7788,1.1,0.4,0,-32.1,-154.2,12,56,147.1,0,13
5/14/2023 8:16,91,134,2023,14,10,25,52,1,4,2,29764,clr,117,3,valid,-7788,15.3,0.6,0,-32.1,-154.2,12,55,146.9,0,13
5/14/2023 8:17,122,134,2023,14,10,26,54,1,4,2,29698,clr,171,3,valid,-7788,29.8,0.6,0,-32.1,-154.2,12,56,145.2,-4,13
5/14/2023 8:18,152,134,2023,14,10,27,54,1,4,2,29758,clr,215,3,valid,-7788,50.5,0.5,0,-32.1,-154.2,12,58,143.3,-6,13
5/14/2023 8:19,182,134,2023,14,10,28,54,1,4,2,29818,clr,3,3,valid,-7788,60.3,0.5,0,-32.1,-154.2,12,60,141.7,-6,13
5/14/2023 8:20,213,134,2023,14,10,29,56,1,4,2,30008,clr,57,3,valid,-7788,134.1,0.7,0,-32.1,-154.2,12,63,141.9,-2,13
5/14/2023 8:21,244,134,2023,14,10,30,58,1,4,2,30070,clr,111,3,valid,-7788,140.4,0.6,0,-32.1,-154.2,11,65,142.6,0,13
5/14/2023 8:22,19,134,2023,14,10,32,0,1,4,2,30004,clr,165,3,valid,-7788,144.8,0.8,0,-32.1,-154.2,12,66,144.4,-2,13
5/14/2023 8:23,49,134,2023,14,10,33,0,1,4,2,30064,clr,209,3,valid,-7788,151.8,0.7,0,-32.1,-154.2,12,68,146.9,-3,13
5/14/2023 8:24,79,134,2023,14,10,34,0,1,4,2,30252,clr,254,3,valid,-7788,149.9,0.7,0,-32.1,-154.2,13,71,149.3,-1,14
5/14/2023 8:25,113,134,2023,14,10,35,8,1,4,2,30320,clr,82,3,valid,-7788,147.9,0.6,0,-32.1,-154.2,13,73,150.8,0,14
5/14/2023 8:26,143,134,2023,14,10,36,8,1,4,2,30252,clr,126,3,valid,-7788,148.9,0.6,0,-32.1,-154.2,12,74,151.6,-3,14
5/14/2023 8:28,180,134,2023,14,10,37,22,1,4,2,30326,clr,240,3,valid,-7788,151.6,0.6,0,-32.1,-154.2,13,75,153.2,-4,14
5/14/2023 8:28,210,134,2023,14,10,38,22,1,4,2,30514,clr,28,3,valid,-7788,149.2,0.6,0,-32.1,-154.2,13,75,154,-2,14
5/14/2023 8:30,241,134,2023,14,10,39,24,1,4,2,30576,clr,82,3,valid,-7788,147.9,0.7,0,-32.1,-154.2,13,75,154.1,-1,14
5/14/2023 8:32,47,134,2023,14,10,41,28,1,4,2,30572,clr,190,3,valid,-7788,159.8,0.4,0,-32.1,-154.1,13,79,160.4,0,14
5/14/2023 8:33,81,134,2023,14,10,42,36,1,4,2,30768,clr,18,3,valid,-7788,160.5,0.5,0,-32.2,-154.1,13,81,162.8,-1,14
5/14/2023 8:34,112,134,2023,14,10,43,38,1,4,2,30830,clr,72,3,valid,-7788,163.5,0.5,0,-32.2,-154.1,13,82,164.3,-1,14
5/14/2023 8:34,128,134,2023,14,10,44,10,1,4,2,30734,clr,232,3,valid,-7788,164.5,0.4,0,-32.2,-154.1,13,82,165.4,-2,14
5/14/2023 8:35,163,134,2023,14,10,45,20,1,4,2,30804,clr,70,3,valid,-7788,164.9,0.4,0,-32.2,-154.1,10,83,169,-4,14
5/14/2023 8:36,190,134,2023,14,10,46,14,1,4,2,30986,clr,84,3,valid,-7788,160.2,0.4,0,-32.2,-154.1,13,85,172.5,-5,14
5/14/2023 8:37,221,134,2023,14,10,47,16,1,4,2,31048,clr,139,3,valid,-7788,179.8,0.6,0,-32.2,-154.1,11,84,175.3,-2,14
5/14/2023 8:38,252,134,2023,14,10,48,18,1,4,2,30982,clr,193,3,valid,-7788,189.5,0.6,0,-32.2,-154.1,11,81,176.9,-3,14
5/14/2023 8:40,31,134,2023,14,10,49,28,1,4,2,31052,clr,31,3,valid,-7788,115.1,0.7,0,-32.2,-154.1,12,78,177.8,-4,13
5/14/2023 8:41,65,134,2023,14,10,50,36,1,4,2,31248,clr,115,3,valid,-7788,121.1,0.7,0,-32.2,-154.1,12,78,178.4,-2,13
5/14/2023 8:42,96,134,2023,14,10,51,38,1,4,2,31310,clr,169,3,valid,-7788,108.7,0.7,0,-32.2,-154.1,12,78,179.4,-4,13
5/14/2023 8:43,126,134,2023,14,10,52,38,1,4,2,31242,clr,213,3,valid,-7788,5.9,0.6,0,-32.2,-154.1,12,78,180.7,-7,13
5/14/2023 8:44,155,134,2023,14,10,53,36,1,4,2,31300,clr,247,3,valid,-7788,2.3,0.8,0,-32.2,-154.1,12,75,179.1,-7,13
5/14/2023 8:45,189,134,2023,14,10,54,44,1,4,2,31496,clr,75,3,valid,-7788,1.8,0.7,0,-32.2,-154.1,12,73,177.1,-3,13
5/14/2023 8:46,219,134,2023,14,10,55,44,1,4,2,31556,clr,119,3,valid,-7788,359.1,0.6,0,-32.2,-154.1,13,73,176.3,-1,14
5/14/2023 8:47,250,134,2023,14,10,56,46,1,4,2,31490,clr,173,3,valid,-7788,356.1,0.5,0,-32.2,-154.1,14,71,173.4,-1,15
5/14/2023 8:48,26,134,2023,14,10,57,50,1,4,2,31554,clr,237,3,valid,-7788,3.9,0.6,0,-32.2,-154.1,14,68,167.5,-1,15
5/14/2023 8:49,55,134,2023,14,10,58,48,1,4,2,31612,clr,15,3,valid,-7788,19.7,0.6,0,-32.2,-154.1,14,67,161.7,0,15
5/14/2023 8:50,90,134,2023,14,10,59,58,1,4,2,31810,clr,109,3,valid,-7788,26.3,0.7,0,-32.2,-154.1,14,66,160.2,-2,15
5/14/2023 8:51,121,134,2023,14,11,1,0,1,4,2,31744,clr,163,3,valid,-7788,21.9,0.6,0,-32.2,-154.1,14,67,160.2,-5,15
5/14/2023 8:52,158,134,2023,14,11,2,14,1,4,2,31819,set,22,3,valid,-7787,21.7,0.6,0,-32.2,-154.1,14,69,157.5,-2,15
5/14/2023 8:54,189,134,2023,14,11,3,16,1,4,2,32009,set,76,3,valid,-7787,25,0.6,0,-32.2,-154.1,14,72,150,-1,15
5/14/2023 8:54,218,134,2023,14,11,4,14,1,4,2,32067,set,110,3,valid,-7787,32.2,0.6,0,-32.2,-154.1,14,78,142.9,-1,15
5/14/2023 8:56,249,134,2023,14,11,5,16,1,4,2,32001,set,164,3,valid,-7787,35.6,0.6,0,-32.2,-154.1,14,87,138.8,-4,15
5/14/2023 8:56,23,134,2023,14,11,6,16,1,4,2,32061,set,208,3,valid,-7787,34.9,0.6,0,-32.2,-154.1,14,91,139,-3,15
5/14/2023 8:58,54,134,2023,14,11,7,18,1,4,2,32123,set,6,3,valid,-7787,33.4,0.5,0,-32.3,-154.1,14,94,138.7,-3,15
5/14/2023 8:59,90,134,2023,14,11,8,30,1,4,2,32323,set,110,3,valid,-7787,16.9,0.6,0,-32.3,-154.1,14,100,137.9,-2,15
5/14/2023 9:00,120,134,2023,14,11,9,30,1,4,2,32383,set,154,3,valid,-7787,346.7,0.6,0,-32.3,-154.1,14,104,138.6,-1,15
5/14/2023 9:01,151,134,2023,14,11,10,32,1,4,2,32317,set,208,3,valid,-7787,340.1,0.6,0,-32.3,-154.1,14,107,138.8,-2,15
5/14/2023 9:02,181,134,2023,14,11,11,32,1,4,2,32377,set,252,3,valid,-7787,341.2,0.5,0,-32.3,-154.1,14,109,139.2,-3,15
5/14/2023 9:03,212,134,2023,14,11,12,34,1,4,2,32567,set,50,3,valid,-7787,340.3,0.7,0,-32.3,-154.1,14,110,140.4,-1,15
5/14/2023 9:04,243,134,2023,14,11,13,36,1,4,2,32629,set,104,3,valid,-7787,330.2,0.5,0,-32.3,-154.1,14,109,141.5,0,15
5/14/2023 9:05,18,134,2023,14,11,14,38,1,4,2,32563,set,158,3,valid,-7787,332.4,0.5,0,-32.3,-154.1,14,106,143.3,-3,15
5/14/2023 9:06,49,134,2023,14,11,15,40,1,4,2,32625,set,213,3,valid,-7787,336.6,0.6,0,-32.3,-154.1,14,102,145.9,-5,15
5/14/2023 9:07,79,134,2023,14,11,16,40,1,4,2,45,set,1,3,valid,-7787,338.1,0.7,0,-32.3,-154.1,14,100,148.3,-4,15
5/14/2023 9:08,118,134,2023,14,11,17,58,1,4,2,123,set,135,3,valid,-7787,337.7,0.7,0,-32.3,-154.1,13,98,152.1,-4,15
5/14/2023 9:09,145,134,2023,14,11,18,52,1,4,2,49,set,149,3,valid,-7787,333.9,0.6,0,-32.3,-154.1,14,97,156.3,-5,15
5/14/2023 9:10,180,134,2023,14,11,20,2,1,4,2,119,set,243,3,valid,-7787,261.1,0.6,0,-32.3,-154.1,14,99,160.9,-3,15
5/14/2023 9:11,212,134,2023,14,11,21,6,1,4,2,311,set,51,3,valid,-7787,202.3,0.3,0,-32.3,-154.1,14,99,164.3,-5,15
5/14/2023 9:12,242,134,2023,14,11,22,6,1,4,2,371,set,95,3,valid,-7787,227,0.5,0,-32.3,-154.1,14,100,168,-7,15
5/14/2023 9:13,17,134,2023,14,11,23,8,1,4,2,305,set,149,3,valid,-7787,276.6,0.4,0,-32.3,-154.1,14,98,172.4,-4,15
5/14/2023 9:14,47,134,2023,14,11,24,8,1,4,2,365,set,193,3,valid,-7787,276.7,0.5,0,-32.3,-154.1,14,97,173.5,0,15
5/14/2023 9:15,77,134,2023,14,11,25,8,1,4,2,553,set,237,3,valid,-7787,278.3,0.3,0,-32.3,-154.1,14,97,174,-2,15
5/14/2023 9:16,107,134,2023,14,11,26,8,1,4,2,613,set,25,3,valid,-7787,281.9,0.5,0,-32.3,-154.1,12,97,175.9,-6,15
5/14/2023 9:17,138,134,2023,14,11,27,10,1,4,2,547,set,79,3,valid,-7787,309.3,0.5,0,-32.3,-154.1,14,93,179.2,-7,15
5/14/2023 9:18,169,134,2023,14,11,28,12,1,4,2,609,set,133,3,valid,-7787,317.1,0.6,0,-32.4,-154.1,14,84,181.4,-8,15
5/14/2023 9:19,199,134,2023,14,11,29,12,1,4,2,797,set,178,3,valid,-7787,332.1,0.6,0,-32.4,-154.1,14,72,177.7,-5,15
5/14/2023 9:20,230,134,2023,14,11,30,14,1,4,2,859,set,232,3,valid,-7787,347.8,0.7,0,-32.4,-154.1,13,69,175.7,2,15
5/14/2023 9:21,3,134,2023,14,11,31,12,1,4,2,789,set,10,3,valid,-7787,357.5,0.8,0,-32.4,-154.1,14,71,174.8,0,15
5/14/2023 9:22,34,134,2023,14,11,32,14,1,4,2,851,set,64,3,valid,-7787,353.3,0.7,0,-32.4,-154.1,14,68,168.7,-1,15
5/14/2023 9:23,64,134,2023,14,11,33,14,1,4,2,1039,set,108,3,valid,-7787,343.8,0.7,0,-32.4,-154.1,13,64,163.6,-2,15
5/14/2023 9:25,107,134,2023,14,11,34,40,1,4,2,1125,set,26,3,valid,-7787,339.2,0.6,0,-32.4,-154.1,13,69,156.1,-1,15
5/14/2023 9:26,150,134,2023,14,11,36,6,1,4,2,1083,set,200,3,valid,-7787,345.3,0.8,0,-32.4,-154.1,14,73,149.8,-2,5
5/14/2023 9:27,179,134,2023,14,11,37,4,1,4,2,1141,set,234,3,valid,-7787,344.6,0.7,0,-32.4,-154.1,14,76,146.8,-2,5
5/14/2023 9:28,209,134,2023,14,11,38,4,1,4,2,1329,set,22,3,valid,-7787,340.8,0.8,0,-32.4,-154,14,80,144,-4,5
5/14/2023 9:29,240,134,2023,14,11,39,6,1,4,2,1391,set,76,3,valid,-7787,344.4,0.7,0,-32.4,-154,14,84,142.2,-3,5
5/14/2023 9:30,14,134,2023,14,11,40,6,1,4,2,1323,set,120,3,valid,-7787,345.1,0.7,0,-32.4,-154,14,85,141.8,-2,5
5/14/2023 9:31,45,134,2023,14,11,41,8,1,4,2,1385,set,174,3,valid,-7787,346.6,0.8,0,-32.4,-154,14,83,141.6,-2,5
5/14/2023 9:32,76,134,2023,14,11,42,10,1,4,2,1575,set,228,3,valid,-7787,345.8,0.6,0,-32.4,-154,14,80,141.4,-4,5
5/14/2023 9:33,106,134,2023,14,11,43,10,1,4,2,1635,set,17,3,valid,-7787,347.1,0.7,0,-32.4,-154,14,79,141.2,-5,5
5/14/2023 9:35,137,134,2023,14,11,44,12,1,4,2,1569,set,71,3,valid,-7787,349.1,0.5,0,-32.4,-154,14,78,141.7,-6,5
5/14/2023 9:35,162,134,2023,14,11,45,2,1,4,2,1619,set,65,3,valid,-7787,311,0.5,0,-32.4,-154,14,76,144.4,-6,5
5/14/2023 9:36,194,134,2023,14,11,46,6,1,4,2,1811,set,129,3,valid,-7787,283.1,0.4,0,-32.4,-154,14,70,152,-7,5
5/14/2023 9:37,223,134,2023,14,11,47,4,1,4,2,1869,set,163,3,valid,-7787,307.9,0.5,0,-32.4,-154,14,61,153.7,-7,5
5/14/2023 9:39,253,134,2023,14,11,48,4,1,4,2,1801,set,207,3,valid,-7787,339.6,0.5,0,-32.4,-154,14,51,145,-4,5
5/14/2023 9:39,29,134,2023,14,11,49,8,1,4,2,1865,set,15,3,valid,-7787,353.5,0.4,0,-32.4,-154,14,51,144.8,0,5
5/14/2023 9:40,53,134,2023,14,11,49,56,1,4,2,1913,set,255,3,valid,-7787,340,0.6,0,-32.4,-154,14,53,147,0,5
5/14/2023 9:41,78,134,2023,14,11,50,46,1,4,2,2091,set,249,3,valid,-7787,331.7,0.7,0,-32.4,-154,14,51,145.5,0,5
5/14/2023 9:42,103,134,2023,14,11,51,36,1,4,2,2141,set,243,3,valid,-7787,350.2,0.3,0,-32.4,-154,13,45,136.5,-4,14
5/14/2023 9:43,140,134,2023,14,11,52,50,1,4,2,2087,set,101,3,valid,-7787,22.4,0.4,0,-32.4,-154,13,48,109.5,-11,14
5/14/2023 9:44,171,134,2023,14,11,53,52,1,4,2,2149,set,155,3,valid,-7787,32.6,0.8,0,-32.4,-154,13,60,102.4,0,14
5/14/2023 9:45,202,134,2023,14,11,54,54,1,4,2,2339,set,209,3,valid,-7787,65.6,0.4,0,-32.4,-154,13,59,103.4,6,14
5/14/2023 9:46,228,134,2023,14,11,55,46,1,4,2,2391,set,213,3,valid,-7787,102.6,0.5,0,-32.4,-154,13,61,102.6,-2,14
5/14/2023 9:47,253,134,2023,14,11,56,36,1,4,2,2313,set,207,3,valid,-7787,140,0.7,0,-32.4,-154,13,72,100.8,-9,14
5/14/2023 9:48,28,134,2023,14,11,57,38,1,4,2,2375,set,6,3,valid,-7787,163,0.7,0,-32.4,-154,13,86,100.3,-7,14
5/14/2023 9:49,59,134,2023,14,11,58,40,1,4,2,2565,set,60,3,valid,-7787,208.6,0.6,0,-32.4,-154,13,93,100.6,-2,14
5/14/2023 9:50,87,134,2023,14,11,59,36,1,4,2,2621,set,84,3,valid,-7787,258,0.7,0,-32.4,-154,13,100,101.9,-2,14
5/14/2023 9:51,113,134,2023,14,12,0,28,1,4,2,2673,set,88,3,valid,-7787,262.1,0.8,0,-32.4,-154,12,106,103.5,-5,14
5/14/2023 9:52,140,134,2023,14,12,1,22,1,4,2,2599,set,102,3,valid,-7787,260.7,0.6,0,-32.4,-154,13,109,107.4,-10,14
5/14/2023 9:52,165,134,2023,14,12,2,12,1,4,2,2649,set,96,3,valid,-7787,265.6,0.7,0,-32.4,-154,11,113,111.3,-7,14
5/14/2023 9:53,190,134,2023,14,12,3,2,1,4,2,2827,set,90,3,valid,-7787,296.6,0.6,0,-32.4,-154,12,115,113.4,-1,14
5/14/2023 9:54,216,134,2023,14,12,3,54,1,4,2,2879,set,94,3,valid,-7787,358.2,0.3,0,-32.4,-154,13,118,114.9,-1,14
5/14/2023 9:55,240,134,2023,14,12,4,42,1,4,2,2927,set,78,3,valid,-7787,42.3,0.6,0,-32.4,-153.9,13,120,118.3,-6,14
5/14/2023 9:56,15,134,2023,14,12,5,44,1,4,2,2861,set,132,3,valid,-7787,17.4,0.7,0,-32.4,-153.9,13,127,123.4,-8,14
5/14/2023 9:57,45,134,2023,14,12,6,44,1,4,2,2921,set,176,3,valid,-7787,4.1,0.5,0,-32.5,-153.9,13,129,126,-4,14
5/14/2023 9:58,76,134,2023,14,12,7,46,1,4,2,3111,set,230,3,valid,-7787,79.3,0.9,0,-32.5,-153.9,13,132,127,-3,14
5/14/2023 9:59,106,134,2023,14,12,8,46,1,4,2,3171,set,18,3,valid,-7787,85.6,0.7,0,-32.5,-153.9,13,131,128.4,-5,14
5/14/2023 10:00,137,134,2023,14,12,9,48,1,4,2,3105,set,72,3,valid,-7787,79.4,0.9,0,-32.5,-153.9,13,135,129.3,-5,14
5/14/2023 10:01,167,134,2023,14,12,10,48,1,4,2,3165,set,116,3,valid,-7787,79.8,0.7,0,-32.5,-153.9,13,138,129.2,-8,14
5/14/2023 10:02,205,134,2023,14,12,12,4,1,4,2,3370,clr,241,3,valid,-7786,79.8,0.8,0,-32.5,-153.9,13,145,127.8,-5,14
5/14/2023 10:03,235,134,2023,14,12,13,4,1,4,2,3430,clr,29,3,valid,-7786,79.4,0.8,0,-32.5,-153.9,13,149,128.4,0,14
5/14/2023 10:04,10,134,2023,14,12,14,6,1,4,2,3364,clr,83,3,valid,-7786,79.6,0.7,0,-32.5,-153.9,9,150,128.5,0,13
5/14/2023 10:05,41,134,2023,14,12,15,8,1,4,2,3426,clr,137,3,valid,-7786,79.3,0.6,0,-32.5,-153.9,12,152,128.6,-3,13
5/14/2023 10:06,71,134,2023,14,12,16,8,1,4,2,3614,clr,181,3,valid,-7786,79.4,0.6,0,-32.5,-153.9,12,156,128.8,-7,13
5/14/2023 10:08,101,134,2023,14,12,17,8,1,4,2,3674,clr,225,3,valid,-7786,79.5,0.7,0,-32.5,-153.9,12,162,128,-5,15
5/14/2023 10:08,131,134,2023,14,12,18,8,1,4,2,3606,clr,13,3,valid,-7786,79.6,0.8,0,-32.5,-153.8,12,164,127.9,0,14
5/14/2023 10:09,161,134,2023,14,12,19,8,1,4,2,3666,clr,57,3,valid,-7786,79.6,0.6,0,-32.5,-153.8,12,166,127.7,-2,14
5/14/2023 10:10,192,134,2023,14,12,20,10,1,4,2,3856,clr,111,3,valid,-7786,79.4,0.7,0,-32.5,-153.8,12,168,128.5,-4,14
5/14/2023 10:11,223,134,2023,14,12,21,12,1,4,2,3918,clr,165,3,valid,-7786,79.4,0.5,0,-32.5,-153.8,12,169,130,0,14
5/14/2023 10:12,253,134,2023,14,12,22,12,1,4,2,3850,clr,209,3,valid,-7786,79.6,0.6,0,-32.5,-153.8,12,169,130.5,0,14
5/14/2023 10:13,28,134,2023,14,12,23,14,1,4,2,3912,clr,7,3,valid,-7786,79.5,0.6,0,-32.5,-153.8,12,169,131.7,-4,14
5/14/2023 10:15,58,134,2023,14,12,24,14,1,4,2,4100,clr,51,3,valid,-7786,79.4,0.7,0,-32.5,-153.8,12,167,133.4,-8,14
5/14/2023 10:15,89,134,2023,14,12,25,16,1,4,2,4162,clr,106,3,valid,-7786,79.7,0.6,0,-32.6,-153.8,12,164,133.6,-10,14
5/14/2023 10:17,121,134,2023,14,12,26,20,1,4,2,4098,clr,170,3,valid,-7786,79.4,0.7,0,-32.6,-153.8,12,166,132.9,-7,14
5/14/2023 10:18,151,134,2023,14,12,27,20,1,4,2,4158,clr,214,3,valid,-7786,79.4,0.9,0,-32.6,-153.8,12,169,133.7,-3,14
5/14/2023 10:19,190,134,2023,14,12,28,38,1,4,2,4364,clr,92,3,valid,-7786,78,0.7,0,-32.6,-153.8,12,173,134.6,-3,14
5/14/2023 10:20,221,134,2023,14,12,29,40,1,4,2,4426,clr,146,3,valid,-7786,78.5,0.7,0,-32.6,-153.8,12,175,135.8,-5,14
5/14/2023 10:21,251,134,2023,14,12,30,40,1,4,2,4358,clr,190,3,valid,-7786,79.9,0.7,0,-32.6,-153.7,12,174,136.9,-4,14
5/14/2023 10:22,26,134,2023,14,12,31,42,1,4,2,4420,clr,244,3,valid,-7786,80.6,0.5,0,-32.6,-153.7,12,171,137.1,-4,15
5/14/2023 10:23,57,134,2023,14,12,32,44,1,4,2,4610,clr,42,3,valid,-7786,80.3,0.7,0,-32.6,-153.7,13,165,136.3,-5,15
5/14/2023 10:24,88,134,2023,14,12,33,46,1,4,2,4672,clr,96,3,valid,-7786,80,0.7,0,-32.6,-153.7,13,159,133.8,-4,15
5/14/2023 10:25,118,134,2023,14,12,34,46,1,4,2,4732,clr,140,3,valid,-7786,81.2,0.9,0,-32.6,-153.7,12,153,131,-5,15
5/14/2023 10:26,148,134,2023,14,12,35,46,1,4,2,4664,clr,184,3,valid,-7786,77.6,0.6,0,-32.6,-153.7,13,149,126.9,-9,15
5/14/2023 10:27,180,134,2023,14,12,36,50,1,4,2,4728,clr,248,3,valid,-7786,59.7,0.5,0,-32.6,-153.7,13,141,119.7,-13,15
5/14/2023 10:28,210,134,2023,14,12,37,50,1,4,2,4916,clr,36,3,valid,-7786,80,0.8,0,-32.6,-153.7,13,140,111.8,-9,15
5/14/2023 10:29,240,134,2023,14,12,38,50,1,4,2,4976,clr,81,3,valid,-7786,84.2,0.7,0,-32.6,-153.7,13,148,108.6,-5,15
5/14/2023 10:30,14,134,2023,14,12,39,50,1,4,2,4908,clr,125,3,valid,-7786,81.1,0.6,0,-32.6,-153.7,13,155,108.8,-3,15
5/14/2023 10:31,44,134,2023,14,12,40,50,1,4,2,4968,clr,169,3,valid,-7786,81.2,0.7,0,-32.6,-153.7,13,159,108.6,-3,15
5/14/2023 10:32,75,134,2023,14,12,41,52,1,4,2,5158,clr,223,3,valid,-7786,79.7,0.5,0,-32.6,-153.7,13,165,109.2,-6,15
5/14/2023 10:33,105,134,2023,14,12,42,52,1,4,2,5218,clr,11,3,valid,-7786,78.5,0.5,0,-32.6,-153.6,13,175,110.6,-5,15
5/14/2023 10:34,135,134,2023,14,12,43,52,1,4,2,5150,clr,55,3,valid,-7786,80.7,0.5,0,-32.6,-153.6,13,181,112.1,-1,15
5/14/2023 10:35,166,134,2023,14,12,44,54,1,4,2,5212,clr,109,3,valid,-7786,80.6,0.6,0,-32.6,-153.6,13,181,114,-2,15
5/14/2023 10:36,200,134,2023,14,12,46,2,1,4,2,5408,clr,193,3,valid,-7786,78.1,0.6,0,-32.7,-153.6,12,185,116.3,-6,14
5/14/2023 10:37,233,134,2023,14,12,47,8,1,4,2,5474,clr,11,3,valid,-7786,83.3,0.5,0,-32.7,-153.6,12,190,119.8,-6,14
5/14/2023 10:38,6,134,2023,14,12,48,6,1,4,2,5404,clr,45,3,valid,-7786,81.8,0.5,0,-32.7,-153.6,13,199,123.3,-9,15
5/14/2023 10:40,37,134,2023,14,12,49,8,1,4,2,5466,clr,99,3,valid,-7786,76.7,0.5,0,-32.7,-153.6,13,208,126.6,-11,15
5/14/2023 10:40,67,134,2023,14,12,50,8,1,4,2,5654,clr,143,3,valid,-7786,79.3,0.7,0,-32.7,-153.6,13,214,129.5,-9,15
5/14/2023 10:41,98,134,2023,14,12,51,10,1,4,2,5716,clr,197,3,valid,-7786,79.6,0.8,0,-32.7,-153.6,13,215,131.1,-6,15
5/14/2023 10:42,129,134,2023,14,12,52,12,1,4,2,5650,clr,252,3,valid,-7786,79.3,0.8,0,-32.7,-153.5,13,214,131.8,-7,15
5/14/2023 10:43,160,134,2023,14,12,53,14,1,4,2,5712,clr,50,3,valid,-7786,79.2,0.6,0,-32.7,-153.5,13,210,132.3,-8,15
5/14/2023 10:45,191,134,2023,14,12,54,16,1,4,2,5902,clr,104,3,valid,-7786,77.9,0.6,0,-32.7,-153.5,13,202,133.3,-10,15
5/14/2023 10:46,222,134,2023,14,12,55,18,1,4,2,5964,clr,158,3,valid,-7786,75.4,0.5,0,-32.7,-153.5,13,196,135,-11,15
5/14/2023 10:47,253,134,2023,14,12,56,20,1,4,2,5898,clr,212,3,valid,-7786,80.1,0.8,0,-32.7,-153.5,13,189,136.8,-9,15
5/14/2023 10:47,28,134,2023,14,12,57,22,1,4,2,5960,clr,10,3,valid,-7786,74.4,0.7,0,-32.7,-153.5,13,183,137.4,-9,15
5/14/2023 10:49,59,134,2023,14,12,58,24,1,4,2,6150,clr,64,3,valid,-7786,15.5,1,0,-32.7,-153.5,13,177,135.8,-11,15
5/14/2023 10:50,89,134,2023,14,12,59,24,1,4,2,6210,clr,108,3,valid,-7786,11.9,0.7,0,-32.7,-153.5,13,180,128.5,-10,15
5/14/2023 10:51,120,134,2023,14,13,0,26,1,4,2,6144,clr,162,3,valid,-7786,24.7,0.4,0,-32.7,-153.5,13,187,121.9,-2,15
5/14/2023 10:51,151,134,2023,14,13,1,28,1,4,2,6206,clr,216,3,valid,-7786,27.9,0.8,0,-32.8,-153.5,12,192,121.1,-4,15
5/14/2023 10:53,181,134,2023,14,13,2,28,1,4,2,6266,clr,4,3,valid,-7786,36,0.8,0,-32.8,-153.5,13,197,118.5,-5,15
5/14/2023 10:54,212,134,2023,14,13,3,30,1,4,2,6456,clr,58,3,valid,-7786,37.3,0.7,0,-32.8,-153.4,13,203,117.4,-1,15
5/14/2023 10:55,242,134,2023,14,13,4,30,1,4,2,6516,clr,102,3,valid,-7786,44.4,0.5,0,-32.8,-153.4,13,207,116.8,0,15
5/14/2023 10:56,16,134,2023,14,13,5,30,1,4,2,6448,clr,146,3,valid,-7786,44,0.5,0,-32.8,-153.4,12,212,115.4,-5,14
5/14/2023 10:57,46,134,2023,14,13,6,30,1,4,2,6508,clr,191,3,valid,-7786,65.6,0.5,0,-32.8,-153.4,12,226,113.4,-10,14
5/14/2023 10:58,77,134,2023,14,13,7,32,1,4,2,6698,clr,245,3,valid,-7786,90,0.6,0,-32.8,-153.4,12,244,113.6,-3,14
5/14/2023 10:59,108,134,2023,14,13,8,34,1,4,2,6760,clr,43,3,valid,-7786,80.5,0.6,0,-32.8,-153.4,12,245,113,3,14
5/14/2023 11:00,138,134,2023,14,13,9,34,1,4,2,6692,clr,87,3,valid,-7786,79.5,0.7,0,-32.8,-153.4,12,244,112.4,-2,14
5/14/2023 11:01,167,134,2023,14,13,10,32,1,4,2,6750,clr,121,3,valid,-7786,82.2,0.5,0,-32.8,-153.3,12,254,112.7,-8,14
5/14/2023 11:02,198,134,2023,14,13,11,34,1,4,2,6940,clr,175,3,valid,-7786,100.2,0.7,0,-32.8,-153.3,12,276,114.3,-10,14
5/14/2023 11:03,228,134,2023,14,13,12,34,1,4,2,7000,clr,219,3,valid,-7786,122.1,0.9,0,-32.8,-153.3,8,288,117.8,-8,14
5/14/2023 11:04,3,134,2023,14,13,13,36,1,4,2,6934,clr,17,3,valid,-7786,102.8,0.7,0,-32.8,-153.3,11,288,120.3,-2,14
5/14/2023 11:05,33,134,2023,14,13,14,36,1,4,2,6994,clr,61,3,valid,-7786,82.3,0.7,0,-32.8,-153.3,12,286,121.2,0,14
5/14/2023 11:06,63,134,2023,14,13,15,36,1,4,2,7182,clr,105,3,valid,-7786,80.6,0.7,0,-32.8,-153.3,12,283,122.3,-4,14
5/14/2023 11:07,94,134,2023,14,13,16,38,1,4,2,7244,clr,159,3,valid,-7786,77.8,0.7,0,-32.8,-153.3,12,277,123.9,-7,14
5/14/2023 11:08,123,134,2023,14,13,17,36,1,4,2,7174,clr,193,3,valid,-7786,76.6,0.5,0,-32.9,-153.2,12,275,125.1,-9,14
5/14/2023 11:09,153,134,2023,14,13,18,36,1,4,2,7234,clr,237,3,valid,-7786,79.9,0.8,0,-32.9,-153.2,12,271,126,-14,14
5/14/2023 11:10,185,134,2023,14,13,19,40,1,4,2,7426,clr,45,3,valid,-7786,78.4,0.7,0,-32.9,-153.2,12,261,127.3,-19,14
5/14/2023 11:11,215,134,2023,14,13,20,40,1,4,2,7487,set,90,3,valid,-7785,77.6,0.6,0,-32.9,-153.2,12,255,128.7,-20,14
5/14/2023 11:12,245,134,2023,14,13,21,40,1,4,2,7547,set,134,3,valid,-7785,79,0.9,0,-32.9,-153.2,12,247,129.7,-20,14
5/14/2023 11:13,20,134,2023,14,13,22,42,1,4,2,7481,set,188,3,valid,-7785,83.1,0.6,0,-32.9,-153.2,12,248,126.1,-18,14
5/14/2023 11:14,49,134,2023,14,13,23,40,1,4,2,7539,set,222,3,valid,-7785,85.1,0.6,0,-32.9,-153.2,12,253,123,-15,14
5/14/2023 11:15,80,134,2023,14,13,24,42,1,4,2,7729,set,20,3,valid,-7785,107,0.7,0,-32.9,-153.1,12,258,125.4,-11,14
5/14/2023 11:16,110,134,2023,14,13,25,42,1,4,2,7789,set,64,3,valid,-7785,98.7,0.9,0,-32.9,-153.1,12,260,128.5,-15,14
5/14/2023 11:17,141,134,2023,14,13,26,44,1,4,2,7723,set,118,3,valid,-7785,36.2,1.2,0,-32.9,-153.1,12,263,133.5,-16,14
5/14/2023 11:18,171,134,2023,14,13,27,44,1,4,2,7783,set,162,3,valid,-7785,283.2,0.8,0,-32.9,-153.1,11,266,136.3,-19,14
5/14/2023 11:19,195,134,2023,14,13,28,32,1,4,2,7959,set,146,3,valid,-7785,273.4,0.7,0,-32.9,-153.1,12,262,134.5,-18,15
5/14/2023 11:20,225,134,2023,14,13,29,32,1,4,2,8019,set,190,3,valid,-7785,281.9,0.4,0,-33,-153.1,13,249,131.4,-16,15
5/14/2023 11:21,255,134,2023,14,13,30,32,1,4,2,7951,set,234,3,valid,-7785,268.7,0.8,0,-33,-153.1,9,244,127.1,-16,15
5/14/2023 11:22,30,134,2023,14,13,31,34,1,4,2,8013,set,32,3,valid,-7785,271.2,0.8,0,-33,-153.1,11,251,125.2,-16,15
5/14/2023 11:23,61,134,2023,14,13,32,36,1,4,2,8203,set,86,3,valid,-7785,269,0.9,0,-33,-153,13,262,128.3,-14,15
5/14/2023 11:24,91,134,2023,14,13,33,36,1,4,2,8263,set,130,3,valid,-7785,270.4,0.7,0,-33,-153,13,262,130.4,-9,15
5/14/2023 11:25,123,134,2023,14,13,34,40,1,4,2,8199,set,195,3,valid,-7785,269.9,0.8,0,-33,-153,13,258,131.1,-13,15
5/14/2023 11:26,153,134,2023,14,13,35,40,1,4,2,8259,set,239,3,valid,-7785,265.4,0.7,0,-33,-153,13,252,130.8,-20,15
5/14/2023 11:27,183,134,2023,14,13,36,40,1,4,2,8319,set,27,3,valid,-7785,268.5,0.9,0,-33,-153,13,248,128.1,-22,15
5/14/2023 11:28,215,134,2023,14,13,37,44,1,4,2,8511,set,91,3,valid,-7785,268.3,0.9,0,-33,-153,11,252,127.8,-18,15
5/14/2023 11:29,244,134,2023,14,13,38,42,1,4,2,8569,set,125,3,valid,-7785,270.2,0.6,0,-33,-153,11,248,129.7,-13,15
5/14/2023 11:30,18,134,2023,14,13,39,42,1,4,2,8501,set,169,3,valid,-7785,275.3,0.6,0,-33,-153,11,236,128.7,-10,15
5/14/2023 11:31,54,134,2023,14,13,40,54,1,4,2,8573,set,17,3,valid,-7785,268.1,0.5,0,-33.1,-152.9,14,230,126.5,-12,16
5/14/2023 11:32,85,134,2023,14,13,41,56,1,4,2,8763,set,71,3,valid,-7785,280.9,0.7,0,-33.1,-152.9,14,231,123.8,-20,16
5/14/2023 11:33,116,134,2023,14,13,42,58,1,4,2,8825,set,125,3,valid,-7785,353.6,0.4,0,-33.1,-152.9,14,243,119.5,-22,16
5/14/2023 11:34,147,134,2023,14,13,44,0,1,4,2,8759,set,179,3,valid,-7785,359.8,0.7,0,-33.1,-152.9,14,266,118.4,-20,16
5/14/2023 11:35,177,134,2023,14,13,45,0,1,4,2,8819,set,223,3,valid,-7785,349.3,0.5,0,-33.1,-152.9,14,291,118.4,-21,16
5/14/2023 11:36,208,134,2023,14,13,46,2,1,4,2,9009,set,21,3,valid,-7785,234.3,0.8,0,-33.1,-152.9,10,315,117.9,-22,16
5/14/2023 11:37,238,134,2023,14,13,47,2,1,4,2,9069,set,66,3,valid,-7785,277.8,0.5,0,-33.1,-152.9,11,324,122,-22,15
5/14/2023 11:38,12,134,2023,14,13,48,2,1,4,2,9001,set,110,3,valid,-7785,296,0.2,0,-33.1,-152.8,10,312,124.1,-17,15
5/14/2023 11:39,43,134,2023,14,13,49,4,1,4,2,9063,set,164,3,valid,-7785,358.5,0.6,0,-33.1,-152.8,13,322,121.3,-11,15
5/14/2023 11:40,73,134,2023,14,13,50,4,1,4,2,9251,set,208,3,valid,-7785,8.6,0.7,0,-33.1,-152.8,12,333,120.1,-8,15
5/14/2023 11:41,103,134,2023,14,13,51,4,1,4,2,9311,set,252,3,valid,-7785,7.6,0.7,0,-33.1,-152.8,13,347,119.3,-16,15
5/14/2023 11:42,134,134,2023,14,13,52,6,1,4,2,9245,set,50,3,valid,-7785,298,1.2,0,-33.1,-152.8,13,374,119.3,-19,15
5/14/2023 11:43,164,134,2023,14,13,53,6,1,4,2,9305,set,94,3,valid,-7785,287.7,0.5,0,-33.2,-152.7,12,387,119.6,-17,14
5/14/2023 11:44,195,134,2023,14,13,54,8,1,4,2,9495,set,148,3,valid,-7785,257.2,0.6,0,-33.2,-152.7,12,387,120.3,-15,14
5/14/2023 11:45,226,134,2023,14,13,55,10,1,4,2,9557,set,202,3,valid,-7785,231.3,0.8,0,-33.2,-152.7,10,395,123,-10,14
5/14/2023 11:46,1,134,2023,14,13,56,12,1,4,2,9491,set,0,3,valid,-7785,256.4,1,0,-33.2,-152.7,11,411,123.6,-3,15
5/14/2023 11:48,32,134,2023,14,13,57,14,1,4,2,9553,set,54,3,valid,-7785,276.3,0.5,0,-33.2,-152.6,10,424,123.2,-8,15
5/14/2023 11:49,62,134,2023,14,13,58,14,1,4,2,9741,set,98,3,valid,-7785,269.9,0.8,0,-33.2,-152.6,10,436,123.5,-12,16
5/14/2023 11:50,93,134,2023,14,13,59,16,1,4,2,9803,set,152,3,valid,-7785,271.3,0.8,0,-33.2,-152.6,14,440,125,-16,16
5/14/2023 11:51,124,134,2023,14,14,0,18,1,4,2,9737,set,206,3,valid,-7785,269.5,0.7,0,-33.2,-152.6,14,434,126.1,-14,16
5/14/2023 11:52,154,134,2023,14,14,1,18,1,4,2,9797,set,251,3,valid,-7785,267.4,0.8,0,-33.3,-152.6,14,437,127.9,-9,16
5/14/2023 11:53,185,134,2023,14,14,2,20,1,4,2,9987,set,49,3,valid,-7785,265.7,0.8,0,-33.3,-152.5,14,444,129.7,-6,16
5/14/2023 11:53,215,134,2023,14,14,3,20,1,4,2,10047,set,93,3,valid,-7785,262.2,0.7,0,-33.3,-152.5,14,447,130.9,-6,16
5/14/2023 11:55,245,134,2023,14,14,4,20,1,4,2,10107,set,137,3,valid,-7785,272,0.3,0,-33.3,-152.5,10,452,132.3,-8,16
5/14/2023 11:55,19,134,2023,14,14,5,20,1,4,2,10039,set,181,3,valid,-7785,263.8,0.8,0,-33.3,-152.5,11,460,133.2,3,16
5/14/2023 11:57,49,134,2023,14,14,6,20,1,4,2,10099,set,225,3,valid,-7785,263,0.7,0,-33.3,-152.4,12,459,132.7,-2,16
5/14/2023 11:57,80,134,2023,14,14,7,22,1,4,2,10289,set,23,3,valid,-7785,273.9,0.7,0,-33.4,-152.4,10,464,133.3,-4,16
5/14/2023 11:59,111,134,2023,14,14,8,24,1,4,2,10351,set,77,3,valid,-7785,268.1,0.6,0,-33.4,-152.4,14,472,133.6,-10,16
5/14/2023 11:59,142,134,2023,14,14,9,26,1,4,2,10285,set,131,3,valid,-7785,270.2,0.6,0,-33.4,-152.4,14,479,134.2,-19,16
5/14/2023 12:01,173,134,2023,14,14,10,28,1,4,2,10347,set,185,3,valid,-7785,268,0.6,0,-33.4,-152.4,14,475,135.8,-20,16
5/14/2023 12:02,204,134,2023,14,14,11,30,1,4,2,10537,set,239,3,valid,-7785,260.5,0.7,0,-33.4,-152.3,14,482,137.7,-19,16
5/14/2023 12:03,235,134,2023,14,14,12,32,1,4,2,10599,set,37,3,valid,-7785,273.3,0.6,0,-33.5,-152.3,14,478,139.7,-20,16
5/14/2023 12:04,9,134,2023,14,14,13,32,1,4,2,10531,set,81,3,valid,-7785,269.7,0.8,0,-33.5,-152.3,12,454,140,-22,16
5/14/2023 12:05,39,134,2023,14,14,14,32,1,4,2,10591,set,126,3,valid,-7785,270.5,0.7,0,-33.5,-152.3,13,433,140.9,-21,16
5/14/2023 12:06,69,134,2023,14,14,15,32,1,4,2,10779,set,170,3,valid,-7785,271.5,0.6,0,-33.5,-152.3,8,415,141.9,-24,16
5/14/2023 12:07,100,134,2023,14,14,16,34,1,4,2,10841,set,224,3,valid,-7785,267.6,0.7,0,-33.5,-152.2,11,392,143.2,-25,16
5/14/2023 12:08,131,134,2023,14,14,17,36,1,4,2,10775,set,22,3,valid,-7785,267.1,0.6,0,-33.5,-152.2,14,364,143.7,-26,16
5/14/2023 12:09,161,134,2023,14,14,18,36,1,4,2,10835,set,66,3,valid,-7785,269.4,0.7,0,-33.6,-152.2,14,362,143.1,-26,16
5/14/2023 12:10,191,134,2023,14,14,19,36,1,4,2,11023,set,110,3,valid,-7785,267.8,0.9,0,-33.6,-152.2,14,359,142.4,-32,16
5/14/2023 12:11,222,134,2023,14,14,20,38,1,4,2,11085,set,164,3,valid,-7785,270.3,0.6,0,-33.6,-152.2,14,338,142.2,-34,16
5/14/2023 12:12,252,134,2023,14,14,21,38,1,4,2,11017,set,208,3,valid,-7785,275,0.5,0,-33.6,-152.2,13,329,142,-34,16
5/14/2023 12:13,27,134,2023,14,14,22,40,1,4,2,11079,set,6,3,valid,-7785,299.8,1.1,0,-33.6,-152.2,10,333,139,-33,15
5/14/2023 12:14,57,134,2023,14,14,23,40,1,4,2,11267,set,50,3,valid,-7785,269.5,0.6,0,-33.6,-152.1,11,335,137.6,-33,16
5/14/2023 12:15,88,134,2023,14,14,24,42,1,4,2,11329,set,104,3,valid,-7785,261.1,0.6,0,-33.6,-152.1,13,317,138.7,-32,16
5/14/2023 12:16,118,134,2023,14,14,25,42,1,4,2,11389,set,148,3,valid,-7785,266.8,0.5,0,-33.7,-152.1,13,295,141.3,-34,16
5/14/2023 12:17,149,134,2023,14,14,26,44,1,4,2,11323,set,202,3,valid,-7785,267.8,0.6,0,-33.7,-152.1,13,287,142.5,-34,17
5/14/2023 12:18,180,134,2023,14,14,27,46,1,4,2,11385,set,0,3,valid,-7785,270.3,0.5,0,-33.7,-152.1,15,277,143,-33,17
5/14/2023 12:19,210,134,2023,14,14,28,46,1,4,2,11574,clr,45,3,valid,-7784,265.1,0.7,0,-33.7,-152.1,16,277,144.2,-32,18
5/14/2023 12:20,241,134,2023,14,14,29,48,1,4,2,11636,clr,99,3,valid,-7784,264.3,0.5,0,-33.7,-152.1,16,278,146.4,-32,18
5/14/2023 12:21,25,134,2023,14,14,31,8,1,4,2,11588,clr,243,3,valid,-7784,334.4,0.6,0,-33.7,-152.1,13,276,148.6,-30,18
5/14/2023 12:22,56,134,2023,14,14,32,10,1,4,2,11778,clr,41,3,valid,-7784,10.3,1.1,0,-33.7,-152,16,296,145.8,-30,18
5/14/2023 12:23,86,134,2023,14,14,33,10,1,4,2,11838,clr,85,3,valid,-7784,7.1,0.9,0,-33.8,-152,16,305,146.5,-31,18
5/14/2023 12:24,117,134,2023,14,14,34,12,1,4,2,11900,clr,139,3,valid,-7784,156.8,0.4,0,-33.8,-152,16,317,148.7,-30,5
5/14/2023 12:28,209,134,2023,14,14,37,16,1,4,2,12084,clr,35,3,valid,-7784,278.4,0.4,0,-33.8,-152,16,287,153.9,-34,5
5/14/2023 12:28,240,134,2023,14,14,38,18,1,4,2,12146,clr,89,3,valid,-7784,258.3,0.4,0,-33.8,-152,16,271,153.7,-33,5
5/14/2023 12:30,15,134,2023,14,14,39,20,1,4,2,12080,clr,143,3,valid,-7784,272.3,0.8,0,-33.8,-152,16,234,152.4,-35,5
5/14/2023 12:30,46,134,2023,14,14,40,22,1,4,2,12142,clr,197,3,valid,-7784,281.1,0.4,0,-33.9,-152,14,218,155.5,-36,5
5/14/2023 12:32,76,134,2023,14,14,41,22,1,4,2,12330,clr,241,3,valid,-7784,284.3,0.5,0,-33.9,-152,15,215,155.1,-37,5
5/14/2023 12:33,107,134,2023,14,14,42,24,1,4,2,12392,clr,40,3,valid,-7784,290,0.5,0,-33.9,-152,14,201,150,-33,5
5/14/2023 12:34,137,134,2023,14,14,43,24,1,4,2,12324,clr,84,3,valid,-7784,300.6,0.6,0,-33.9,-152,12,184,144.6,-30,5
5/14/2023 12:35,168,134,2023,14,14,44,26,1,4,2,12386,clr,138,3,valid,-7784,272.2,0.6,0,-33.9,-151.9,15,173,141.6,-31,5
5/14/2023 12:36,199,134,2023,14,14,45,28,1,4,2,12576,clr,192,3,valid,-7784,277.6,0.5,0,-33.9,-151.9,16,149,137.6,-31,5
5/14/2023 12:37,229,134,2023,14,14,46,28,1,4,2,12636,clr,236,3,valid,-7784,281.5,0.5,0,-33.9,-151.9,16,142,132.2,-34,5
5/14/2023 12:38,3,134,2023,14,14,47,28,1,4,2,12568,clr,24,3,valid,-7784,268.6,0.6,0,-33.9,-151.9,16,138,126.6,-36,5
5/14/2023 12:39,33,134,2023,14,14,48,28,1,4,2,12628,clr,68,3,valid,-7784,332.6,0.9,0,-33.9,-151.9,13,149,128.3,-37,5
5/14/2023 12:40,63,134,2023,14,14,49,28,1,4,2,12816,clr,112,3,valid,-7784,115.2,0.5,0,-33.9,-151.9,16,162,129,-36,5
5/14/2023 12:41,93,134,2023,14,14,50,28,1,4,2,12876,clr,156,3,valid,-7784,228.4,0.5,0,-33.9,-151.9,15,177,137.5,-38,5
5/14/2023 12:42,124,134,2023,14,14,51,30,1,4,2,12810,clr,210,3,valid,-7784,291.4,0.1,0,-33.9,-151.9,14,189,145,-38,5
5/14/2023 12:43,154,134,2023,14,14,52,30,1,4,2,12870,clr,254,3,valid,-7784,167.5,0.6,0,-33.9,-151.9,11,214,148.1,-40,5
5/14/2023 12:44,185,134,2023,14,14,53,32,1,4,2,13060,clr,52,3,valid,-7784,234.8,0.5,0,-33.9,-151.9,17,216,148.6,-36,5
5/14/2023 12:45,216,134,2023,14,14,54,34,1,4,2,13122,clr,106,3,valid,-7784,229,0.6,0,-34,-151.9,15,218,156.9,-38,5
5/14/2023 12:46,247,134,2023,14,14,55,36,1,4,2,13056,clr,161,3,valid,-7784,8.7,1.6,0,-34,-151.9,17,223,163.6,-42,5
5/14/2023 12:47,21,134,2023,14,14,56,36,1,4,2,13116,clr,205,3,valid,-7784,342.2,0.2,0,-34,-151.9,18,224,156.9,-39,5
5/14/2023 12:48,53,134,2023,14,14,57,40,1,4,2,13180,clr,13,3,valid,-7784,352.7,-0.3,0,-34,-151.9,13,213,149.1,-42,5
5/14/2023 12:49,78,134,2023,14,14,58,30,1,4,2,13358,clr,7,3,valid,-7784,322.4,1.2,0,-34,-151.9,14,199,143,-49,5
5/14/2023 12:49,103,134,2023,14,14,59,20,1,4,2,13408,clr,1,3,valid,-7784,22.5,0.6,0,-34,-151.8,18,190,140.9,-49,5
5/14/2023 12:51,134,134,2023,14,15,0,22,1,4,2,13342,clr,55,3,valid,-7784,299.9,0,0,-34,-151.8,13,130,145.7,-44,5
5/14/2023 12:51,158,134,2023,14,15,1,10,1,4,2,13390,clr,39,3,valid,-7784,155.5,1.4,0,-34,-151.8,17,113,150.2,-43,5
5/14/2023 12:52,189,134,2023,14,15,2,12,1,4,2,13580,clr,93,3,valid,-7784,310.2,1,0,-34,-151.8,17,133,155.7,-50,5
5/14/2023 12:54,219,134,2023,14,15,3,12,1,4,2,13640,clr,137,3,valid,-7784,213.9,0.1,0,-34,-151.8,13,146,157,-51,5
5/14/2023 12:54,249,134,2023,14,15,4,12,1,4,2,13572,clr,181,3,valid,-7784,325.6,0.1,0,-34,-151.8,16,119,162.8,-48,5
